rand_lat,rand_lng,Nearest_City,Country,act_lat,act_lng,Temperature_F,Humidity_Perc,Cloudiness_Perc,Wind_Speed_MPH
70.4319170353738,122.63059001103676,zhigansk,ru,66.77,123.37,-30.42,87,82,12.86
-34.03374637894101,-59.3112810095692,zarate,ar,-34.1,-59.03,71.51,97,15,6.51
-26.828857881188526,130.9882436810492,yulara,au,-25.24,130.99,98.6,9,0,8.05
-32.53437829111244,-57.56804068863046,young,uy,-32.68,-57.63,75.99,72,0,6.69
44.19965660093288,82.25025094378469,yining,cn,29.04,114.56,43.88,91,100,2.01
1.8655572156123839,3.908771227765669,yenagoa,ng,4.92,6.26,69.4,64,87,2.8
65.99457160362132,-117.62432093132327,yellowknife,ca,62.46,-114.35,10.4,85,90,5.82
64.75354554021686,70.47918002310848,yar-sale,ru,66.83,70.83,-7.91,98,84,4.07
-36.03539779858062,176.41289696133083,whitianga,nz,-36.83,175.7,81,62,0,10
30.946803913039247,108.32824477560149,wanxian,cn,30.8,108.39,48.24,61,73,1.95
49.400681877723,152.47868480382346,vostok,ru,46.49,135.88,7.09,80,76,7.49
-27.369920791070633,-25.846347473783766,vila velha,br,-20.33,-40.29,71.29,100,75,3.36
-0.950704218006095,-48.030269736826114,vigia,br,-0.86,-48.14,78.8,88,100,3.36
-41.088783658119326,-64.51897989595562,viedma,ar,-40.81,-63,65.41,43,71,15.3
-5.9615896513778495,56.952219106995756,victoria,sc,-4.62,55.45,86,74,20,2.24
59.26849227682328,-17.749403630319136,vestmannaeyjar,is,63.44,-20.27,39.97,75,94,27.02
66.34302897588577,60.37075012914946,verkhnyaya inta,ru,65.98,60.31,-6.86,96,82,4.81
83.10863019431426,36.69837843174935,vardo,no,70.37,31.11,17.6,85,100,26.4
-28.3026329026615,166.55976191290745,vao,nc,-22.67,167.48,77.52,82,85,16.08
-0.3576575712909573,139.9783773589881,vanimo,pg,-2.67,141.3,83.61,81,30,18.03
-25.762284485874744,52.01407727726249,vangaindrano,mg,-23.35,47.6,79.63,62,48,1.19
-85.53354804802737,-175.38371011178887,vaini,to,-21.2,-175.2,77,100,90,10.29
70.14604742090754,30.169424978169815,vadso,no,70.07,29.75,18.66,85,90,31.09
29.489807446325287,-99.54387827573478,uvalde,us,29.37,-99.77,58.62,100,90,2.51
70.13420124611582,133.8386563976215,ust-kuyga,ru,70.02,135.6,-42.03,92,0,8.14
61.336047304241134,52.62645203099339,ust-kulom,ru,61.69,53.69,-1.32,98,98,4.56
-70.99678770539366,-80.25011913396281,ushuaia,ar,-54.8,-68.3,35.38,96,72,5.95
46.49091233750565,30.56578949300041,usatove,ua,46.53,30.66,30.2,68,9,4.47
29.794503082686546,-110.68350911530284,ures,mx,29.43,-110.4,60.03,69,28,3
79.79044640103086,-58.67913263367653,upernavik,gl,72.79,-56.15,-16.62,95,93,7.29
4.973821710613521,-62.86830655469646,upata,ve,8.01,-62.4,67.33,96,100,5.32
51.05233236357469,87.466389173442,ulagan,ru,50.63,87.96,15.62,80,48,4
52.981777511138404,10.40566299321435,uelzen,de,52.97,10.57,33.35,68,76,3.36
42.08331334381256,-114.25365980401844,twin falls,us,42.56,-114.46,38.71,93,90,9.04
64.79645176308458,101.08536239547124,tura,ru,64.28,100.25,0.3,95,100,3.02
-3.74903378630394,-80.42529417792832,tumbes,pe,-3.57,-80.44,77.83,83,90,10.74
86.07677441854113,-134.97598429466208,tuktoyaktuk,ca,69.45,-133.04,-14.8,75,90,20.8
-26.97363971933985,-66.41176497668778,tucuman,ar,-26.82,-65.22,82.4,61,40,12.75
12.619368302903638,-78.50665554857626,tubuala,pa,9.52,-79.03,75.2,78,25,5.82
-53.79316844352488,161.04893328097847,tuatapere,nz,-46.13,167.68,70,57,99,11.01
-5.161899758360278,133.23995828287366,tual,id,-5.67,132.75,84.56,69,81,8.79
-1.6856422598592786,-31.192621016242214,touros,br,-5.2,-35.46,78.8,94,75,3.36
41.50497547066129,-49.737697381790326,torbay,ca,47.67,-52.73,18.3,85,5,13.87
28.503803600552715,106.25518733857655,tongzi,cn,28.78,105.09,53.46,48,0,5.53
17.858104285821668,-108.712106681544,tomatlan,mx,19.93,-105.25,65.25,97,100,1.61
86.79052884991219,128.8776397162801,tiksi,ru,71.69,128.87,-29.25,67,0,4.21
60.17230740986838,33.49745683513137,tikhvin,ru,59.65,33.53,25,89,82,5.01
58.97567660972683,157.6315036961575,tigil,ru,57.8,158.67,30.72,79,100,17.43
76.58049028944097,-93.50187649040893,thompson,ca,55.74,-97.86,17.6,92,90,4.7
19.92499633762837,0.1173019266765607,tessalit,ml,20.2,1.01,68.09,12,82,7.47
3.3938914273997227,127.56399581539068,ternate,id,0.8,127.4,84.2,68,74,5.48
20.222374790270948,92.03717141942133,teknaf,bd,20.86,92.31,78.62,23,0,5.17
30.380399824045384,-14.188065422410801,teguise,es,29.06,-13.56,57.2,82,0,6.93
19.526389693472495,-103.14997859894757,tecalitlan,mx,19.47,-103.3,52.95,72,97,2.13
67.0441843066838,80.67002491511568,tazovskiy,ru,67.47,78.7,-6.02,97,80,6.44
73.74926309363855,-37.76351183561857,tasiilaq,gl,65.61,-37.64,28.4,74,100,38.03
22.052525403018038,-7.180590138955694,taoudenni,ml,22.68,-3.98,66.6,27,32,4.47
-13.962044362434654,-74.19394850942213,tambo,pe,-14.8,-73.92,48.02,89,100,0.94
69.77525016968175,93.54377466048982,talnakh,ru,69.49,88.4,5,77,75,11.18
42.0077229997959,71.94249399923541,talas,kg,42.52,72.24,23.14,85,61,3.13
-5.320852230976968,-83.83363632576093,talara,pe,-4.58,-81.27,73.8,93,41,11.59
68.07730440690432,93.80638669600972,svetlogorsk,ru,54.94,20.15,41,86,75,11.18
47.374689311059086,138.69362448486993,svetlaya,ru,46.54,138.33,19.38,53,100,4.36
31.413843020928923,-106.96266288391317,sunland park,us,31.8,-106.58,50.13,42,1,4.7
-2.5187725613273244,100.49802768813299,sungaipenuh,id,-2.08,101.38,72.45,89,83,2.84
59.04818622339428,-3.638150819652708,stromness,gb,58.97,-3.3,44.6,81,91,24.16
40.40789239476996,-106.05614175128657,steamboat springs,us,40.48,-106.83,24.69,92,90,1.5
67.5096904653378,155.31971200163468,srednekolymsk,ru,67.45,153.68,-23.35,97,100,2.1
-30.804240374353107,16.411846711631938,springbok,za,-29.66,17.89,56.46,65,80,11.9
61.73912841767148,151.09745147006265,spornoye,ru,50.84,37.29,32,92,75,8.95
-43.619266735771056,71.2113943572958,souillac,mu,-20.52,57.52,80.26,78,40,13.87
-0.6883856010165488,131.75948402548835,sorong,id,-0.88,131.25,89.8,57,70,5.99
-10.986500438261999,124.92712130645913,soe,id,-9.86,124.28,85.78,71,40,6.31
55.40407029350098,156.2513284071822,sobolevo,ru,54.43,31.9,27.9,91,0,7.72
56.5385063411392,-115.13887554874441,slave lake,ca,55.28,-114.77,15.8,100,1,4.7
53.15626840827349,123.46077958870148,skovorodino,ru,53.98,123.92,-4.07,89,0,2.28
69.24924614470493,20.161752912005767,skibotn,no,69.39,20.27,12.15,92,75,3.36
52.703287713713365,-143.42675830128326,sitka,us,57.05,-135.33,42.06,65,90,18.34
54.02747680932771,-89.65877913811558,sioux lookout,ca,50.1,-91.92,23,92,90,6.93
42.57828121104512,35.82186981593486,sinop,tr,41.77,34.87,42.85,51,17,6.38
-7.051278905741995,115.1533782869401,singaraja,id,-8.11,115.09,84.6,69,38,6.51
41.22894959749547,104.14125914403127,shitanjing,cn,39.23,106.34,32.63,62,70,3
26.874899934946924,138.74450859911593,shingu,jp,33.73,135.98,50,93,75,8.05
28.033934052472702,167.229641118119,severo-kurilsk,ru,50.68,156.12,18.32,91,100,39.88
-16.870629559484073,23.747868648102667,sesheke,zm,-17.48,24.3,66.2,82,0,6.49
47.363724312908715,-77.31326769260602,senneterre,ca,48.38,-77.23,30.2,100,90,4.7
56.92977085046476,2.087344268638361,scarborough,gb,54.28,-0.4,43.25,93,72,8.05
16.44385983219115,47.377628912195036,sayyan,ye,15.17,44.32,50.7,69,8,7.52
74.49277539048035,114.65085070544961,saskylakh,ru,71.92,114.08,-20.65,93,98,15.55
-25.508212559131522,-42.65545011562159,saquarema,br,-22.92,-42.51,75.2,83,0,9.17
0.17146414745145933,-67.05010218421178,sao gabriel da cachoeira,br,-0.13,-67.09,73.36,96,93,1.5
4.91525934866111,-25.669645804096746,sao filipe,cv,14.9,-24.5,74.46,63,13,17.58
-9.527658013612822,-52.688931611809096,sao felix do xingu,br,-6.64,-51.99,71.71,96,100,1.9
-28.891584980024604,-64.67479417075722,santiago del estero,ar,-27.8,-64.26,76.46,47,68,7.52
-3.2766379207596543,-54.86099282888195,santarem,br,-2.44,-54.71,77,94,40,4.7
29.316609575918633,-15.873063763344703,santa cruz de tenerife,es,28.47,-16.25,55.62,71,29,5.82
-23.54626075888133,-45.79464476447063,santa branca,br,-23.4,-45.88,62.6,88,3,2.24
-12.195854736992544,-71.98848389051489,santa ana,pe,-12.87,-72.72,52.14,96,93,2.19
43.74903883800454,12.12781174346432,sansepolcro,it,43.57,12.14,42.33,100,93,1.12
21.614456353173665,-127.14686262771971,san quintin,mx,30.48,-115.95,57.74,89,2,2.17
18.604809917905882,-86.05033009764293,san pedro,bz,17.92,-87.97,78.37,66,0,11.48
3.4516371287987795,-114.87246585211619,san patricio,mx,19.22,-104.7,75.97,72,85,4.72
-4.688260465802443,-89.09524041895118,san cristobal,ec,-0.9,-89.62,76.91,85,31,13.29
-16.05386572458177,152.9799583795034,samarai,pg,-10.62,150.67,83.05,78,82,6.49
-3.079774064890074,-81.68737150497576,salinas,ec,-2.22,-80.97,78.8,78,72,9.17
-42.237618008853616,-6.140540625782677,saldanha,za,-33.01,17.94,60.8,87,59,2.24
13.165102067004142,61.24696376573027,salalah,om,17.02,54.09,77,78,40,1.12
-47.03595831813653,65.06996506567955,saint-philippe,re,-21.36,55.77,78.03,78,75,6.93
17.730001455243766,-57.40153791771712,saint-francois,gp,16.25,-61.27,73.4,94,75,7.54
51.462848966768405,-57.648190138325205,saint-augustin,ca,51.23,-58.65,15.89,83,58,14.61
34.984131659021656,-62.86618631688246,saint george,bm,32.38,-64.68,63.21,93,75,3.36
66.23413965548082,25.427268123542717,rovaniemi,fi,66.5,25.72,-2.2,84,99,2.24
-39.1548885618355,-45.00307598553516,rio grande,br,-32.03,-52.1,69.01,95,42,5.06
-33.54872006581427,-63.3873235771278,rio cuarto,ar,-33.13,-64.35,69.8,68,0,3.36
-20.801310818627115,-117.28596347100547,rikitea,pf,-23.12,-134.97,78.73,78,24,11.1
32.01303236661089,-81.37407126745546,richmond hill,us,31.94,-81.3,44.85,93,1,6.38
32.24498511515468,-29.514077114384833,ribeira grande,pt,38.52,-28.7,54.16,72,100,3.51
-45.82290371203356,-63.433320436948634,rawson,ar,-43.3,-65.1,67.93,52,0,29.84
31.31824297901514,58.28100427113415,ravar,ir,31.27,56.81,42.84,45,57,12.19
64.82150646401948,2.282006478915804,raudeberg,no,61.99,5.14,45.16,93,100,26.4
35.00727697827979,47.741807134286574,qorveh,ir,35.17,47.8,21.87,66,0,3.67
35.472820366872824,121.36568688465036,qingdao,cn,36.1,120.37,44.82,39,100,13.42
89.26364466481394,-97.91111882852688,qaanaaq,gl,77.48,-69.36,-12.08,46,58,4.68
-62.21620807788008,-89.71943122676225,punta arenas,cl,-53.15,-70.92,48.09,70,20,12.75
-1.241287402577612,-73.4995604418401,puerto leguizamo,co,-0.19,-74.78,73.58,96,100,2.53
2.6885105127329467,-94.07889868513892,puerto ayora,ec,-0.74,-90.35,75.99,28,33,1.01
-8.914634993430482,-74.48920335361018,pucallpa,pe,-8.38,-74.55,80.6,88,75,2.24
61.373394032210996,-170.91341597435795,provideniya,ru,64.38,-173.3,-5.12,72,0,4.07
-7.724328242280578,102.4326697062267,pringsewu,id,-5.36,104.97,83.73,80,95,0.63
50.39288389999231,118.92872575116928,priargunsk,ru,50.37,119.1,-0.26,93,56,3.31
49.98028775462362,-124.62483261043684,powell river,ca,49.85,-124.54,43.47,93,90,12.75
-1.726398193469194,120.31713975812164,poso,id,-1.4,120.75,77.02,73,32,4.27
-57.29044657168137,129.7263412108278,portland,au,-38.33,141.6,60.51,75,98,12.84
48.70752540499569,-128.22669334057986,port hardy,ca,50.7,-127.42,46.4,81,90,21.92
-78.47803566182981,32.605707683057005,port elizabeth,za,-33.92,25.57,68,82,20,25.28
9.343520784434773,93.30278689294471,port blair,in,11.67,92.75,78.39,67,67,12.8
18.378294342553204,-75.39279151292702,port antonio,jm,18.18,-76.46,73.94,73,75,8.05
-57.89117466479031,41.12066630748902,port alfred,za,-33.59,26.89,69.01,90,90,5.99
21.512443342082122,-33.42973013866094,ponta do sol,cv,17.2,-25.09,69.8,88,75,26.4
62.877888960437105,60.570689979936986,polunochnoye,ru,60.87,60.42,0.79,96,100,4.92
35.36130969004081,31.869027987674286,polis,cy,35.04,32.43,44.6,81,75,8.05
-44.30162378412913,170.96181920991353,pleasant point,nz,-44.27,171.13,69.01,74,42,5.99
-7.607964729553743,-33.658910670179495,pitimbu,br,-7.47,-34.81,80.6,83,20,5.82
-19.956085545440217,-90.46380060212735,pisco,pe,-13.7,-76.22,72.73,83,90,16.11
-10.71181589550217,-60.321158847722074,pimenta bueno,br,-11.67,-61.19,71.91,96,86,1.01
47.917459674573394,9.237400967629583,pfullendorf,de,47.92,9.25,31.19,86,90,1.12
70.62726609154845,171.20182277768384,pevek,ru,69.7,170.31,-7.35,94,100,0.94
40.04645875285081,-13.432023953037174,peniche,pt,39.36,-9.38,47.16,100,0,4.7
-0.18474841533181063,100.7323173718695,payakumbuh,id,-0.22,100.63,73.38,93,93,1.19
-16.962001326741785,-50.830495380321,parauna,br,-16.95,-50.45,69.48,96,35,9.6
-31.801422628833947,-60.09924959828743,parana,ar,-31.73,-60.52,74.57,41,0,6.51
70.80386111339948,74.30292052003,pangody,ru,65.85,74.49,-7.1,99,82,3.18
65.4168222415633,-60.646362416576295,pangnirtung,ca,66.15,-65.71,-37.46,99,100,2.84
29.076651217403622,-86.0528746523557,panama city,us,30.16,-85.66,47.5,87,1,7.83
22.97731798611197,-87.76422807834818,panaba,mx,21.28,-88.27,68.88,86,0,8.14
-3.302056819779253,105.0019591494281,palembang,id,-2.92,104.75,84.2,74,40,11.41
5.538282537729415,106.31073644845918,paka,my,4.64,103.44,84.13,74,40,4.7
38.19546006961795,-116.67347006016124,pahrump,us,36.21,-115.98,48.11,36,1,3.36
-5.14934299748883,91.11647233326681,padang,id,-0.95,100.35,76.01,90,95,1.57
-19.792523028647835,16.421258221749127,outjo,na,-20.12,16.15,62.6,48,0,2.75
52.870826060623756,21.785784020041802,ostrow mazowiecka,pl,52.8,21.9,35.01,56,55,5.39
-40.561138948084434,-73.4723452142736,osorno,cl,-40.57,-73.15,57.99,97,98,3.15
-19.480515063289644,11.858018907038996,opuwo,na,-18.06,13.84,70.54,36,4,2.21
40.358134330760436,41.911669845001825,oltu,tr,40.55,42,18.55,49,0,4.41
-8.078588964117046,-34.33201494248772,olinda,br,-8.01,-34.86,82.4,78,40,3.36
58.25061159330164,154.17964593207847,ola,ru,59.58,151.28,-4.92,87,100,14.65
32.10223483681749,130.70432495221053,okuchi,jp,32.07,130.62,53.6,87,75,9.17
12.374746680157998,-55.984677888487525,oistins,bb,13.07,-59.53,75.2,88,40,6.93
41.78419035152709,64.99954358435693,nurota,uz,40.56,65.69,28.4,92,62,2.24
-28.987458005013785,163.5368268385115,noumea,nc,-22.28,166.46,91.4,46,75,21.92
22.169679459578333,-15.143694381885126,nouadhibou,mr,20.93,-17.03,64.4,63,100,21.92
64.75934780398589,-123.77394990639945,norman wells,ca,65.28,-126.83,-13,69,20,14.99
70.58177580782359,-166.06410682172253,nome,us,64.5,-165.41,-18.4,75,1,8.72
21.052065374553976,134.55411088419243,nishihara,jp,26.18,127.76,71.55,94,75,13.87
-1.8773459605316702,17.215071840066656,nioki,cd,-2.72,17.68,74.14,62,29,1.9
59.77718451422939,35.60383142256927,nikolskoye,ru,59.7,30.79,29.89,86,100,4.47
47.802076977229916,123.0949367114086,nianzishan,cn,47.52,122.88,37,78,39,15.01
-12.776013574036483,138.65565305342056,nhulunbuy,au,-12.23,136.77,84.2,79,40,9.17
-59.76342322804105,134.3547233407212,new norfolk,au,-42.78,147.06,65.57,30,75,21.92
47.12147811899237,2.799914457722849,nevers,fr,46.92,3.33,33.8,96,92,2.24
29.45077619687028,128.13431226645883,naze,jp,28.37,129.48,68,94,75,16.11
-5.145111893313754,-32.89475574865355,natal,br,-5.79,-35.21,79.7,83,40,6.93
2.6121330302560324,-75.73491906980033,nataga,co,2.54,-75.81,57.45,95,100,2.71
26.348875094780084,74.83398494710028,nasirabad,in,26.3,74.73,73.22,22,0,3.33
81.4705702109978,-63.21933496095215,narsaq,gl,60.92,-46.05,14,61,58,5.82
50.29407378396013,-38.58541582322587,nanortalik,gl,60.14,-45.24,22.89,74,83,28.32
30.534123438874474,106.41691201962362,nanchong,cn,30.8,106.08,49.24,67,90,3.89
-15.9021858104566,12.203727214064969,namibe,ao,-15.2,12.15,74.61,72,56,10.11
63.99327933361977,71.59108355340243,nadym,ru,65.53,72.52,-9.6,100,88,3.29
49.41172923036291,90.91844507555078,mugur-aksy,ru,50.35,90.5,9.79,80,20,8.84
38.112681209035856,-89.02916266377389,mount vernon,us,40.91,-73.84,39.79,81,90,11.41
-20.24323221272158,140.02341095887414,mount isa,au,-20.73,139.5,84.2,83,96,5.82
-41.94056364220621,136.3118175671172,mount gambier,au,-37.83,140.77,71.6,49,40,14.99
-2.832196915738521,12.670571618145004,mossendjo,cg,-2.95,12.73,72.07,98,100,1.23
-20.431612933388834,43.74513092001911,morondava,mg,-20.28,44.28,81.21,82,94,5.59
53.36560039904725,-79.40626182372264,moose factory,ca,51.26,-80.61,26.6,100,90,4.7
41.24438427460342,17.62260982493285,monopoli,it,40.96,17.29,49.08,93,100,2.24
54.60664232953948,141.25160312157163,mnogovershinnyy,ru,53.94,139.92,-12.51,88,3,7.43
45.62301022313241,-105.9750207601541,miles city,us,46.41,-105.84,34.48,69,1,12.75
43.56912701708919,71.14161167267858,mikhaylovka,kz,43,71.5,24.8,100,90,2.24
2.8637059777108362,92.45532657049336,meulaboh,id,4.14,96.13,82.9,76,100,5.59
10.909859304070764,17.773649623679205,melfi,td,11.06,17.94,59.83,16,0,3.53
36.41186151049844,2.092237512003976,medea,dz,36.26,2.75,50,76,40,6.02
57.30966781987698,-108.56055714417975,meadow lake,ca,54.13,-108.43,29.25,98,93,0.85
59.65571288186749,47.78100964375159,maromitsa,ru,59.87,48.01,9.36,93,100,9.42
10.40116029743858,-54.24774946999605,marienburg,sr,5.85,-55.02,75.11,94,40,4.7
-9.941739926375348,-34.08627517169276,maragogi,br,-9.01,-35.22,81.5,83,43,13.87
-55.13506369868024,-37.378675967007524,mar del plata,ar,-38,-57.56,60.21,76,0,1.32
-25.119282733986196,34.14739885921563,manjacaze,mz,-24.71,33.88,80.58,67,18,7.67
11.43074327855966,122.29132711108264,manika,ph,11.39,122.28,84.06,76,57,5.28
-3.5149608565357227,19.666319034266536,mangai,cd,-4.05,19.53,73.96,75,70,0.25
14.778454191175882,-72.75127318735424,manaure,co,11.78,-72.44,77.5,90,87,10.65
8.40808454587389,-53.03819696417483,mana,gf,5.66,-53.78,72.57,98,97,2.26
1.2850838484504266,13.3954459339231,makokou,ga,0.57,12.86,70.16,55,95,1.52
16.70689293147541,-160.61510803966337,makakilo city,us,21.35,-158.09,75.85,61,20,4.7
-33.40893007123047,66.86371716276275,mahebourg,mu,-20.41,57.7,80.26,78,40,13.87
-9.215419558920658,41.26129573809163,madimba,tz,-10.4,40.33,75.2,100,75,1.99
-5.07906430279985,146.1673770257775,madang,pg,-5.22,145.8,84.18,78,20,9.91
56.917118248569295,-122.9456757393333,mackenzie,ca,55.3,-123.17,28.4,92,1,6.93
-20.091244476398828,151.9491804213182,mackay,au,-21.15,149.2,80.33,88,75,9.17
-7.827870903359113,20.440301700651986,lucapa,ao,-8.42,20.74,70.09,89,100,2.77
5.8705676157720745,144.88648313188975,lorengau,pg,-2.02,147.27,85.14,71,61,9.78
86.71053453209552,20.96818502382291,longyearbyen,sj,78.22,15.64,-0.4,59,31,1.12
25.25208034004858,116.65379059484849,longyan,cn,25.11,117.02,57,99,100,3.53
30.776158928570027,-123.85553018594364,lompoc,us,34.64,-120.46,53.22,93,75,10.92
60.191759284072845,37.60783126126492,lipin bor,ru,60.26,37.98,12.83,97,27,4.14
-21.039855913620656,-34.95836072278445,linhares,br,-19.39,-40.07,73.27,97,100,2.15
46.08567153187363,1.4168873895607703,limoges,fr,45.75,1.33,42.82,87,100,1.12
69.77895550521819,177.7460212466267,leningradskiy,ru,69.38,178.42,-14.49,95,93,3.38
-37.498599552296824,-94.03707437600255,lebu,cl,-37.62,-73.65,59.67,92,1,6.4
7.640804541534649,-107.4221151397693,lazaro cardenas,mx,17.96,-102.2,70.84,87,61,2.57
71.91655905939686,-173.17111028711614,lavrentiya,ru,65.58,-171,-13.41,75,0,2.06
-40.515154026380365,148.38805830609385,launceston,au,-41.45,147.17,72.5,37,40,17.22
63.223959311974255,23.397870642135018,lapua,fi,62.92,23.17,29.59,100,75,1.12
37.50964068197948,119.70270680544473,laizhou,cn,37.18,119.93,39.29,43,99,6.35
-28.86678828005023,-48.575703546076596,laguna,br,-28.48,-48.78,62.13,80,2,3.76
48.98437969242889,-27.669112748982315,lagoa,pt,39.05,-27.98,57.9,64,100,8.25
-9.921762564597458,-76.73492895008563,la union,pe,-5.4,-80.75,78.21,66,100,11.16
61.99268711056229,-103.471559003116,la ronge,ca,55.1,-105.28,23,92,90,6.93
15.76860929650445,23.939631619568843,kutum,sd,14.2,24.67,46.24,35,0,5.86
45.24214665412745,146.7804868740052,kurilsk,ru,45.23,147.88,14.54,78,86,25.23
62.44854604321901,27.309624445705197,kuopio,fi,62.88,27.67,21.2,92,90,5.82
-39.32215448200095,24.508294095358877,kruisfontein,za,-34,24.73,62.53,78,95,21.52
65.09487862801205,83.01714895626827,krasnoselkup,ru,65.7,82.47,-3.66,96,97,10.42
56.325887687692415,46.76276104308107,kozmodemyansk,ru,56.34,46.57,26.6,100,75,8.95
67.7102510786525,28.87909677492121,kovdor,ru,67.57,30.48,-0.53,95,22,4.12
31.257704732607905,74.06894294578842,kot radha kishan,pk,31.17,74.1,55.4,66,0,2.28
54.044791689778265,16.303657511035425,koszalin,pl,54.19,16.17,30.99,10,100,6.98
55.72975887980735,88.17365728746847,komsomolsk,ru,57.03,40.37,28.4,79,75,8.95
56.114589621284665,-149.94448711122055,kodiak,us,57.79,-152.41,17.6,61,90,17.22
57.64373460563738,161.65813420231206,klyuchi,ru,52.27,79.17,11.16,83,66,17.29
74.77562667405041,-4.296376695994923,klaksvik,fo,62.23,-6.59,44.6,100,100,23.04
49.845299018162365,10.090078147475253,kitzingen,de,49.73,10.17,30.43,100,90,2.01
-9.414228535246707,161.9196436521205,kirakira,sb,-10.45,161.92,82.09,82,3,7.76
42.10352789433864,-73.72948687346987,kingston,us,41.93,-74,36.03,93,40,5.82
-0.18967195826378713,158.5371607967943,kieta,pg,-6.22,155.63,84.22,73,29,5.99
60.112508509723,45.45566956893339,kichmengskiy gorodok,ru,59.98,45.79,5.2,92,97,8.66
61.49589167595087,129.83405567685008,khatassy,ru,61.9,129.64,-49,63,90,2.24
72.47842894262823,97.65628434547278,khatanga,ru,71.97,102.5,-21.73,98,57,3.04
58.04495919404755,53.606898696183464,kez,ru,57.9,53.72,10.81,97,100,4.07
52.84059027884575,-134.9794631380783,ketchikan,us,55.34,-131.65,46.4,87,90,28.86
18.78828185505043,155.28815986458426,kavieng,pg,-2.57,150.8,84.49,74,55,15.28
13.051789743970971,66.65738527607701,kavaratti,in,10.57,72.64,84.2,74,20,2.91
25.725936765472056,147.85857273131546,katsuura,jp,35.13,140.3,42.4,75,75,3.36
15.283754834957108,35.48629650978478,kassala,sd,15.45,36.4,61.43,69,0,11.86
-18.60417772775652,114.78432523243214,karratha,au,-20.74,116.85,85.37,74,0,15.23
35.790084748012404,-152.95871512561231,kapaa,us,22.08,-159.32,74.26,69,75,3.36
-6.096486597245558,150.0491436887715,kandrian,pg,-6.22,149.55,84.72,70,75,3.31
35.30947694644871,149.7392430749755,kamaishi,jp,39.27,141.88,35.6,47,20,2.24
7.877797664112151,83.20099670570852,kalmunai,lk,7.42,81.82,80.38,68,94,10.94
-78.50836280857736,176.0182928809097,kaitangata,nz,-46.28,169.85,58.24,86,52,11.54
27.63342020040075,-153.30977586356894,kahului,us,20.89,-156.47,73.13,65,20,12.75
32.45166282078884,84.19064207820543,jumla,np,29.27,82.18,48.99,81,74,3
15.799332916240175,41.05564986898207,jizan,sa,17.33,42.67,69.8,73,40,0.87
37.80219845117976,110.83233743240174,jiexiu,cn,37.02,111.91,29.43,94,100,5.3
-19.35307308381796,-11.623041458982328,jamestown,sh,-15.94,-5.72,75.02,74,57,17.11
14.026201450104566,-86.7731068868694,jacaleapa,hn,14.02,-86.67,64.29,77,20,4.7
4.565691695311983,-106.90100910315772,ixtapa,mx,20.7,-105.2,71.28,94,90,2.95
24.648924886027586,127.41723039541108,itoman,jp,26.12,127.67,71.55,94,75,13.87
10.376225808533363,-38.353416737732374,itarema,br,-2.92,-39.92,76.01,95,68,4.41
57.646022704001325,-68.83365721004888,iqaluit,ca,63.75,-68.51,-30.12,66,5,9.17
41.612819562207136,-91.4156053118078,iowa city,us,41.66,-91.53,28.45,92,90,11.41
55.606534077478216,-3.0766946971899927,innerleithen,gb,55.62,-3.06,45.3,81,89,11.41
40.86792280949152,-93.93172407683498,indianola,us,41.36,-93.56,20.44,92,90,10.29
-29.757554592672385,-45.24420381686471,imbituba,br,-28.24,-48.67,71.6,94,17,5.82
77.4233970709364,-42.16390535603327,ilulissat,gl,69.22,-51.1,6.8,42,47,13.87
72.14839283525305,-11.461633390463788,husavik,is,66.04,-17.34,26.6,92,90,6.93
-7.137223230497497,-63.699006222406226,humaita,br,-7.51,-63.02,74.64,97,100,1.72
61.29086532870781,22.616879018478414,huittinen,fi,61.17,22.75,35.82,92,90,13.87
63.66798498323354,10.688367204825852,hommelvik,no,63.41,10.79,41.41,87,90,18.34
2.0256180556335863,54.21791239292361,hobyo,so,5.35,48.53,82.6,66,99,19.55
-87.74647216015758,138.09904934832826,hobart,au,-42.88,147.33,65.93,30,77,21.92
-16.16680017870189,74.29367690443704,hithadhoo,mv,-0.6,73.08,83.01,79,100,12.75
12.644203708221198,-153.50283826243555,hilo,us,19.73,-155.09,67.75,65,90,3.36
-23.424307170001427,154.16317736000917,hervey bay,au,-25.3,152.85,88.38,43,40,11.41
-69.00399833166824,7.347825312324289,hermanus,za,-34.42,19.23,57.16,87,41,1.01
24.479051493146144,161.31625197258109,hasaki,jp,35.73,140.83,43.2,80,75,5.82
30.52988803340132,-67.87468745314082,hamilton,bm,32.29,-64.78,63.16,93,75,3.36
44.35835299326396,93.66837538336478,hami,cn,42.8,93.45,18.55,58,0,2.64
-3.5193506813540125,84.5995350773087,hambantota,lk,6.12,81.12,84.2,70,20,18.34
41.26798630236905,-61.10418674434089,halifax,ca,44.65,-63.57,30.54,100,90,13.87
58.151499795395296,-143.40715493032292,haines junction,ca,60.75,-137.51,-14.49,99,100,5.14
49.85849779109432,120.03390777693613,hailar,cn,49.2,119.7,7.23,87,68,6.98
-1.651818530954401,-51.840723761225746,gurupa,br,-1.41,-51.64,74.3,96,99,2.77
9.12023561883774,-83.26400509987012,guacimo,cr,10.21,-83.68,66.36,72,100,10.29
2.4531822781910506,-56.68206367441665,grand-santi,gf,4.25,-54.38,71.1,99,90,2.3
-11.982325893368312,112.0194345059445,gondanglegi,id,-7.75,112.01,88.02,60,64,4.7
-35.329300871627666,86.8307181240558,geraldton,au,-28.77,114.6,86,48,7,13.87
-6.980088340539211,-8.454089230339775,georgetown,sh,-7.93,-14.42,77.76,78,97,12.28
51.76091572772626,121.2986667594007,genhe,cn,50.78,121.52,5.43,85,1,4.45
31.05499740194884,126.96032309684585,fukue,jp,32.69,128.84,54.63,71,75,10.29
47.391624184846705,131.69470383006745,fujin,cn,47.26,132.03,10.35,84,33,7.9
38.36611160105477,-131.1935998350897,fortuna,us,40.6,-124.16,56.3,87,90,11.41
42.47103356488594,-93.83926938196699,fort dodge,us,42.5,-94.17,16.07,85,75,3.15
50.41846819212077,-70.13465358664928,forestville,ca,48.74,-69.08,28.4,86,90,8.05
30.709522186331455,-81.194474081208,fernandina beach,us,30.67,-81.46,47.32,70,1,8.05
47.40412094068455,-75.16263777546732,ferme-neuve,ca,46.7,-75.45,30.79,98,100,4.21
-17.573056622188858,49.48333296947274,fenoarivo atsinanana,mg,-17.37,49.42,77.07,81,89,10.13
-19.818923360476788,166.90114184648593,fayaoue,nc,-20.65,166.53,79.84,79,25,17.38
32.66563084570306,63.31929248799716,farah,af,32.5,62.5,48.51,48,19,3.33
66.12709973486352,-146.44800917370063,fairbanks,us,64.84,-147.72,-20.9,66,1,5.21
-16.478125351276034,-152.8881746979972,faanui,pf,-16.48,-151.75,82.58,75,82,11.36
61.60496673858216,160.3082357646362,evensk,ru,61.95,159.23,15.19,87,100,21.52
-38.017246972043196,123.5338361947313,esperance,au,-33.87,121.9,82.4,48,68,13.87
2.0453667735366707,-81.20713146198041,esmeraldas,ec,-1.87,-79.8,79.93,74,75,6.93
51.34758844914583,72.70416840931753,ereymentau,kz,51.62,73.1,11.21,81,73,25.26
-26.270870630323316,-54.259350746571016,eldorado,ar,-26.4,-54.63,65.43,66,0,2.1
36.58482295796688,-6.241908773113124,el puerto de santa maria,es,36.59,-6.23,47.35,100,0,2.24
59.39407920530434,-179.7437290181574,egvekinot,ru,66.32,-179.17,-7.31,83,39,4.79
-64.53437281900518,47.54037741610347,east london,za,-33.02,27.91,69.8,83,20,13.87
62.2541169938485,136.1301775477624,dzhebariki-khaya,ru,62.22,135.8,-44.43,95,0,0.89
-51.939130814481125,175.87500596387338,dunedin,nz,-45.87,170.5,62.01,78,50,14
55.5544027778414,36.3384282769033,dorokhovo,ru,55.55,36.37,28.4,74,75,8.95
51.56415340951668,-19.890907415463687,dingle,ie,52.14,-10.27,46.71,68,100,25.34
71.75239576587498,76.52586931524019,dikson,ru,73.51,80.55,-4.9,96,100,3.65
23.337317308897582,79.26199751639837,deori khas,in,23.4,79.02,71.91,27,0,1.72
55.71322203305024,3.5888905489628655,den helder,nl,52.96,4.76,35.42,100,90,12.75
29.299182368830415,64.66130789458154,dalbandin,pk,28.89,64.41,56.79,58,0,5.44
-2.3606198557721285,102.5405217359118,curup,id,-3.47,102.53,78.49,84,77,4.45
-28.46998393614961,-77.3943847004685,coquimbo,cl,-29.95,-71.34,62.6,88,20,2.91
-34.639365862449225,147.64814527593825,cootamundra,au,-34.65,148.03,93.99,18,0,7
20.204529740684123,-116.48987583395284,constitucion,mx,23.99,-104.67,52,74,100,1.99
65.33178060884322,-150.6822874514126,college,us,64.86,-147.8,-20.47,66,1,4.16
-49.03548461310742,-73.96964222598888,coihaique,cl,-45.58,-72.07,57.2,50,4,3.36
33.636728815475166,-115.70702660821354,coachella,us,33.68,-116.17,55.38,58,75,1.03
69.41348581228803,-71.69968481855624,clyde river,ca,70.47,-68.59,-25.6,67,75,9.17
39.42423366648714,17.444111170548098,ciro marina,it,39.37,17.13,52.59,85,100,5.37
-55.505233703842094,-20.738068629590146,cidreira,br,-30.18,-50.21,76.05,58,41,7.02
-67.26793943328524,-22.383162514480034,chuy,uy,-33.7,-53.46,64.38,82,1,2.93
85.74188381715805,152.79244408747087,chokurdakh,ru,70.63,147.92,-21.73,89,100,7.47
87.20789838276181,157.82468807692993,cherskiy,ru,68.75,161.3,-15.9,96,100,3.58
24.38360566828493,60.67400987560055,chabahar,ir,25.29,60.64,66.2,82,75,16.11
11.417373389793823,-41.200180567924974,cayenne,gf,4.93,-52.33,75.2,100,97,2.24
-0.27816866811137686,-36.08151544434676,caucaia,br,-3.74,-38.65,83.79,83,20,9.17
-46.78622203366149,-86.50979149960709,castro,cl,-42.47,-73.77,55.4,100,97,3.36
37.583402433817696,-7.275734017268377,cartaya,es,37.28,-7.15,46.99,88,0,1.01
-26.61650140830448,92.40280442358534,carnarvon,au,-24.87,113.63,86,62,6,19.46
-43.776045830490375,1.9554421149788368,cape town,za,-33.93,18.42,58.62,87,40,5.82
28.718815681167683,-79.66855692965122,cape canaveral,us,28.41,-80.6,51.66,76,1,4.7
-12.455504924442977,59.14754997349607,cap malheureux,mu,-19.98,57.61,80.64,78,40,13.87
38.2338652043301,-105.5747447713611,canon city,us,38.44,-105.24,33.44,47,1,5.82
37.798640385242436,-17.071470300723405,camacha,pt,33.08,-16.33,57.2,76,20,6.93
31.009382624712828,-112.4390972487096,caborca,mx,30.58,-111.1,62.01,68,67,3
19.832527911008,-113.69475971958427,cabo san lucas,mx,22.89,-109.91,65.28,82,40,4.7
-28.175416326271204,155.57413921433084,byron bay,au,-28.65,153.62,84.13,61,45,11.41
16.885481363574712,161.95076533932496,butaritari,ki,3.07,172.79,85.71,72,99,8.84
-41.17652806656886,109.81744980916835,busselton,au,-33.65,115.33,93.11,18,99,17.54
-44.752462457838234,141.13649699679456,burnie,au,-41.07,145.92,67.46,49,88,11.99
4.227494791555827,-56.1861426110727,brokopondo,sr,4.75,-55.17,72.43,96,75,3.44
-57.85194900560819,23.6096855573102,bredasdorp,za,-34.53,20.04,58.19,82,69,10.29
-28.747973837400217,26.34616805075089,brandfort,za,-28.7,26.46,60.8,100,20,2.24
11.487702872871154,48.429414784791305,bosaso,so,11.28,49.18,77,83,20,2.89
62.24495884244965,131.02873608042057,borogontsy,ru,62.67,131.17,-32.84,94,0,4.59
58.93194188984742,97.8238020151631,boguchany,ru,58.38,97.45,19.4,81,68,8.77
53.831574349318146,90.81964698654303,bograd,ru,54.23,90.83,24.8,92,75,2.24
-0.9772409788625254,22.101521779847843,boende,cd,-0.22,20.87,72.97,43,23,1.45
-48.562403010439255,166.958810987454,bluff,nz,-46.6,168.33,70,57,79,11.01
-15.749378715257137,35.084399386458216,blantyre,mw,-15.79,35.01,73.11,80,3,1.14
69.20643143064254,28.647413390342393,bjornevatn,no,69.67,29.98,18.9,85,90,31.09
67.33551793195696,164.65329944784293,bilibino,ru,68.05,166.44,-3.3,88,100,4.9
51.53716975295407,-166.4653338504424,bethel,us,41.37,-73.41,39.69,100,90,4.7
54.613664996435034,176.8802108424985,beringovskiy,ru,63.05,179.32,15.48,85,100,8.14
-14.606288461369871,89.53588422919967,bengkulu,id,-3.8,102.27,86.88,62,65,6.4
70.12437053241695,143.7313307392596,belaya gora,ru,68.53,146.42,-24.83,98,100,1.81
63.40380104693091,94.0884854480579,baykit,ru,61.67,96.37,15.26,81,100,12.57
21.34306646708417,-48.71119854596867,bathsheba,bb,13.22,-59.52,75.2,88,40,6.93
69.46129760492863,-160.3600518402639,barrow,us,71.29,-156.79,-20.2,75,20,11.41
7.868608068170985,51.92475089077743,bandarbeyla,so,9.49,50.81,78.3,79,27,19.06
-26.015020099002406,74.70407310051294,bambous virieux,mu,-20.34,57.76,80.31,78,40,13.87
56.92431367744547,81.17269033632704,bakchar,ru,57.02,82.07,7.12,92,100,10.67
49.80339630487882,-67.7332265434799,baie-comeau,ca,49.22,-68.15,26.91,86,90,18.34
42.31561049034232,36.064056495198855,bafra,tr,41.57,35.91,30.2,80,31,4.7
26.12046529279951,12.933786755540325,awbari,ly,26.59,12.78,53.35,22,35,12.28
-55.188046370935226,-162.09193966826325,avarua,ck,-21.21,-159.78,82.4,83,100,11.41
-9.491345457067737,-144.48187962442725,atuona,pf,-9.8,-139.03,81,76,37,14.47
-7.824271641690714,124.62151299351632,atambua,id,-9.11,124.89,84.4,68,5,6.22
24.196099142622614,27.620885861153482,asyut,eg,27.18,31.18,43.93,55,0,6.02
-33.081914369713616,-33.53334867539769,arraial do cabo,br,-22.97,-42.03,75.2,83,0,9.17
-9.028925535525929,-62.13908210924957,ariquemes,br,-9.91,-63.04,73.22,93,98,2.46
32.96772711643685,108.32204319922357,ankang,cn,32.68,109.02,41.02,58,98,3.49
-40.08089721434448,-90.65968426144958,ancud,cl,-41.87,-73.82,55.4,100,50,3.36
63.66753857336451,175.88681795787136,anadyr,ru,64.75,177.48,15.8,78,90,13.42
48.171015757126696,130.736870494575,amurzet,ru,47.7,131.1,13.66,84,17,8.08
-3.3341623147250345,125.85079759840409,ambon,id,-3.7,128.18,91.4,55,40,8.05
-12.677869430428984,47.683974643576875,ambanja,mg,-13.68,48.45,75.2,100,75,2.24
9.099295799739835,-66.20328213473319,altagracia de orituco,ve,9.86,-66.38,64.44,95,83,2.33
19.505253495952516,79.97303598062848,allapalli,in,19.42,80.07,86.95,39,37,2.53
-22.095566776611562,135.06580543187772,alice springs,au,-23.7,133.88,98.6,9,13,13.87
-78.8121274190995,110.2872844124849,albany,au,-35.02,117.89,78.8,50,5,5.82
37.69060568363575,80.6737446077957,aksu,cn,41.12,80.26,29.07,57,100,0.51
-1.3191648969293226,143.45280724018255,aitape,pg,-3.14,142.35,83.93,81,35,16.58
19.096501218119684,-94.09091052723203,agua dulce,mx,18.13,-94.13,69.01,96,7,2.53
-18.561713690674466,-76.0121372911869,acari,pe,-15.43,-74.62,66.58,91,100,3.69
8.184022054771063,-39.52858184988531,acarau,br,-2.89,-40.12,76.01,95,68,4.41
9.581177300451571,-103.28773609096342,acapulco,mx,16.86,-99.89,78.8,78,20,3.36
34.324640518360255,39.530201586093426,abu kamal,sy,34.45,40.92,44.78,63,0,11.14
30.370542985563517,48.46681615042246,abadan,ir,30.34,48.3,45.66,81,13,9.17
